{
 "date": "2024-03-11",
 "cities": [
  {
   "location": "Prague",
   "coordinates": {
    "latitude": 50.0755,
    "longitude": 14.4378
   },
   "records": [
    {
     "time": "7:00",
     "temperature": 8,
     "humidity": 80,
     "windSpeed": 5
    },
    {
     "time": "14:00",
     "temperature": 15,
     "humidity": 50,
     "windSpeed": 10
    },
    {
     "time": "21:00",
     "temperature": 10,
     "humidity": 70,
     "windSpeed": 5
    }
   ]
  },
  {
   "location": "Brno",
   "coordinates": {
    "latitude": 49.1951,
    "longitude": 16.6068
   },
   "records": [
    {
     "time": "7:00",
     "temperature": 7,
     "humidity": 85,
     "windSpeed": 7
    },
    {
     "time": "14:00",
     "temperature": 16,
     "humidity": 45,
     "windSpeed": 12
    },
    {
     "time": "21:00",
     "temperature": 11,
     "humidity": 65,
     "windSpeed": 4
    }
   ]
  },
  {
   "location": "Ostrava",
   "coordinates": {
    "latitude": 49.8209,
    "longitude": 18.2625
   },
   "records": [
    {
     "time": "7:00",
     "temperature": 6,
     "humidity": 80,
     "windSpeed": 10
    },
    {
     "time": "14:00",
     "temperature": 14,
     "humidity": 55,
     "windSpeed": 14
    },
    {
     "time": "21:00",
     "temperature": 9,
     "humidity": 75,
     "windSpeed": 8
    }
   ]
  },
  {
   "location": "Plze\u0148",
   "coordinates": {
    "latitude": 49.7384,
    "longitude": 13.3736
   },
   "records": [
    {
     "time": "7:00",
     "temperature": 7,
     "humidity": 82,
     "windSpeed": 4
    },
    {
     "time": "14:00",
     "temperature": 17,
     "humidity": 48,
     "windSpeed": 9
    },
    {
     "time": "21:00",
     "temperature": 12,
     "humidity": 68,
     "windSpeed": 6
    }
   ]
  },
  {
   "location": "Liberec",
   "coordinates": {
    "latitude": 50.7663,
    "longitude": 15.0562
   },
   "records": [
    {
     "time": "7:00",
     "temperature": 5,
     "humidity": 85,
     "windSpeed": 8
    },
    {
     "time": "14:00",
     "temperature": 13,
     "humidity": 60,
     "windSpeed": 11
    },
    {
     "time": "21:00",
     "temperature": 8,
     "humidity": 80,
     "windSpeed": 3
    }
   ]
  },
  {
   "location": "\u010cesk\u00e9 Bud\u011bjovice",
   "coordinates": {
    "latitude": 48.9747,
    "longitude": 14.4747
   },
   "records": [
    {
     "time": "7:00",
     "temperature": 9,
     "humidity": 78,
     "windSpeed": 5
    },
    {
     "time": "14:00",
     "temperature": 18,
     "humidity": 46,
     "windSpeed": 10
    },
    {
     "time": "21:00",
     "temperature": 13,
     "humidity": 70,
     "windSpeed": 7
    }
   ]
  }
 ]
}